{
    "stations": [
        {
            "id": 0,
            "name": "null",
            "coords": {
                "lat": 0,
                "long": 0
            },
            "maxPower": 0,
            "currentPower": 0,
            "plugNumber": 0,
            "freePlugs": 0,
            "busRoutes": [],
            "charging": 0,
            "active": false
        },
        {
            "id": 1,
            "name": "Primăria Corbeanca [A]",
            "coords": {
                "lat": 44.59412021772872,
                "long": 26.03782308728203
            },
            "maxPower": 15,
            "currentPower": 0.8,
            "plugNumber": 6,
            "freePlugs": 5,
            "busRoutes": [ "402", "441" ],
            "charging": 0.3
            
        },
        {
            "id": 2,
            "name": "Primăria Corbeanca [B]",
            "coords": {
                "lat": 44.59416657180242, 
                "long": 26.037495176377107
            },
            "maxPower": 20,
            "currentPower": 0.6,
            "plugNumber": 10,
            "freePlugs": 7,
            "busRoutes": [ "402", "441" ],
            "charging": 0
        },
        {
            "id": 3,
            "name": "Policlinica [B]",
            "coords": {
                "lat": 44.59423,
                "long": 26.04263
            },
            "maxPower": 10,
            "currentPower": 1,
            "plugNumber": 3,
            "freePlugs": 3,
            "busRoutes": [ "402", "441" ],
            "charging": 0
        },
        {
            "id": 4,
            "name": "Policlinica [A]",
            "cords":{
                "lat":44.59416,
                "long":  26.04232
            },
            "maxPower": 30,
            "currentPower": 0.2,
            "plugNumber": 4,
            "freePlugs": 1,
            "busRoutes": [ "402", "441" ],
            "charging": 0.2
        },
        {
            "id": 5,
            "name": "Arcadei [B]",
            "coords": {
                "lat": 44.59616,
                "long": 26.05034
            },
            "maxPower": 10,
            "currentPower": 1,
            "plugNumber": 0,
            "freePlugs": 0,
            "busRoutes": [],
            "charging": 0
        },
        {
            "id": 6,
            "name": "Arcadei [A]",
            "coords": {
                "lat": 44.59617,
                "long": 26.05072
            },
            "maxPower": 0,
            "currentPower": 0,
            "plugNumber": 0,
            "freePlugs": 0,
            "busRoutes": [],
            "charging": 0
        },
        {
            "id": 7,
            "name": "Penny [B]",
            "coords": {
                "lat": 44.59827,
                "long": 26.05923
            },
            "maxPower": 0,
            "currentPower": 0,
            "plugNumber": 0,
            "freePlugs": 0,
            "busRoutes": [],
            "charging": 0
        },
        {
            "id": 8,
            "name": "Penny [A]",
            "coords": {
                "lat": 44.59827,
                "long": 26.05945
            },
            "maxPower": 0,
            "currentPower": 0,
            "plugNumber": 0,
            "freePlugs": 0,
            "busRoutes": [],
            "charging": 0
        }
    ]
}